,Lb_name,Lb_adress2,Lb_longitude,Lb_latitude,Cr_name,Cr_adress2,Cr_longitude,Cr_latitude,great-circle distance,haversine distance,walking_distance_in_m,walking_distance_in_km,walking_time_in_s,walking_time_in_min,car_distance_in_m,car_distance_in_km,car_time_in_s,car_time_in_min
7796,Ladbrokes L3860,"113/115 Edgware Road  ,London  ,  ,LONDON  ,W2 2HX",-0.16476,51.51597,C3004,"214 Edgware Road  ,London  ,  ,LONDON  ,W2 1DH",-0.1676879,51.5186075,356,0.356448793,424,0.4 km,360,6 mins,932,0.9 km,317,5 mins
7798,Ladbrokes L3860,"113/115 Edgware Road  ,London  ,  ,LONDON  ,W2 2HX",-0.16476,51.51597,C1752,"7-9 Praed Street  ,London  ,  ,LONDON  ,W2 1NJ",-0.1695395,51.5187528,453,0.45290254,604,0.6 km,466,8 mins,748,0.7 km,242,4 mins
14471,Ladbrokes L1111,"13 London Street  ,London  ,  ,LONDON  ,W2 1HL",-0.174378,51.5152994,C2308,"Unit A  ,Fountain House  ,  ,LONDON  ,EC3M 5DJ",-0.1762218,51.5117892,411,0.41064192,515,0.5 km,390,7 mins,1126,1.1 km,283,5 mins
16692,Ladbrokes L2400,"382 Edgware Road  ,London  ,  ,LONDON  ,W2 1EB",-0.1723658,51.5218201,C3004,"214 Edgware Road  ,London  ,  ,LONDON  ,W2 1DH",-0.1676879,51.5186075,482,0.482045455,480,0.5 km,375,6 mins,480,0.5 km,182,3 mins
16694,Ladbrokes L2400,"382 Edgware Road  ,London  ,  ,LONDON  ,W2 1EB",-0.1723658,51.5218201,C1752,"7-9 Praed Street  ,London  ,  ,LONDON  ,W2 1NJ",-0.1695395,51.5187528,393,0.393151404,432,0.4 km,367,6 mins,658,0.7 km,224,4 mins
16700,Ladbrokes L2400,"382 Edgware Road  ,London  ,  ,LONDON  ,W2 1EB",-0.1723658,51.5218201,C1758,"395 Edgware Road  ,London  ,  ,LONDON  ,W2 1BT",-0.1747882,51.5230601,217,0.217025991,220,0.2 km,180,3 mins,220,0.2 km,46,1 min
21145,Ladbrokes L3008,"76 Aldgate High Street  ,London  ,  ,LONDON  ,EC3N 1BD",-0.0756255,51.5137617,C1974,"65/68 Leadenhall St & 98 Fenchurch Street  ,entrance in Hartshorn Alley  ,  ,LONDON  ,EC3A 2AD",-0.078488,51.5130752,212,0.212285118,208,0.2 km,163,3 mins,203,0.2 km,48,1 min
26709,Ladbrokes L1775,"113-115 Gloucester Road  ,London  ,  ,LONDON  ,SW7 4ST",-0.1818769,51.4936281,C3057,"71 Old Brompton Road  ,London  ,  ,LONDON  ,SW7 3JS",-0.176577,51.492828,378,0.377548589,557,0.6 km,439,7 mins,588,0.6 km,146,2 mins
37836,Ladbrokes L2207,"6 Martha Street  ,London  ,  ,LONDON  ,E1 2ER",-0.0558274,51.5120011,C1769,"6 Cavell Street  ,Tower Hamlets  ,  ,LONDON  ,E1 2HP",-0.0569112,51.5147731,317,0.317225972,478,0.5 km,379,6 mins,682,0.7 km,180,3 mins
97901,Ladbrokes L2459,"31 Golders Green Road  ,London  ,  ,LONDON  ,NW11 8EE",-0.197256,51.5719871,C1733,"28 Golders Green Road  ,London  ,  ,LONDON  ,NW11 8LL",-0.1971808,51.5724052,47,0.046780252,158,0.2 km,125,2 mins,612,0.6 km,163,3 mins
111249,Ladbrokes L1306,"54-56 High Street  ,Lewisham  ,  ,LONDON  ,SE13 5JH",-0.0109336,51.4634354,C3156,"179 Lewisham High Street  ,London  ,  ,LONDON  ,SE13 6AA",-0.011045,51.4598206,402,0.402022061,548,0.5 km,403,7 mins,5207,5.2 km,877,15 mins
113473,Ladbrokes L0971,"8/10 Lee High Road  ,Lewisham  ,  ,LONDON  ,SE13 5LQ",-0.0087997,51.4622051,C3156,"179 Lewisham High Street  ,London  ,  ,LONDON  ,SE13 6AA",-0.011045,51.4598206,307,0.307406403,481,0.5 km,358,6 mins,5003,5.0 km,814,14 mins
117920,Ladbrokes L2254,"68 Broadway  ,Stratford  ,  ,LONDON  ,E15 1NG",0.002534,51.5419721,C1828,"Ground & First Floor  ,32 Broadway  ,  ,LONDON  ,E15 4QS",0.000503576,51.54058409,209,0.208658677,220,0.2 km,156,3 mins,1029,1.0 km,301,5 mins
123483,Ladbrokes L3849,"25 Catford Broadway  ,London  ,  ,LONDON  ,SE6 4SN",-0.0211897,51.4455792,C2123,"78 Rushey Green  ,London  ,  ,LONDON  ,SE6 4HW",-0.0183324,51.4476978,308,0.307745102,370,0.4 km,271,5 mins,1455,1.5 km,327,5 mins
177996,Ladbrokes L1017,"103 Katherine Road  ,East Ham  ,  ,LONDON  ,E6 1EW",0.0463439,51.5346619,C1798,"1 Kempton Road  ,East Ham  ,  ,LONDON  ,E6 2LD",0.053409,51.534929,490,0.489578455,583,0.6 km,439,7 mins,1274,1.3 km,324,5 mins
186892,Ladbrokes L3121,"162/164 High Street North  ,East Ham  ,  ,LONDON  ,E6 2JA",0.0517927,51.5378937,C1798,"1 Kempton Road  ,East Ham  ,  ,LONDON  ,E6 2LD",0.053409,51.534929,348,0.348099348,385,0.4 km,286,5 mins,610,0.6 km,143,2 mins
198014,Ladbrokes L0643,"43 Broadway  ,West Ealing  ,  ,LONDON  ,W13 9BP",-0.3236579,51.5100665,C2158,"217 Uxbridge Road  ,West Ealing  ,  ,LONDON  ,W13 9AA",-0.3192296,51.5108402,318,0.318305877,327,0.3 km,262,4 mins,331,0.3 km,111,2 mins
201360,Ladbrokes L0376,"14/15 Holmstall Parade  ,Burnt Oak  ,  ,EDGWARE  ,HA8 5HX",-0.2640409,51.597275,C1730,"69 Burnt Oak Broadway  ,Edgware  ,  ,EDGWARE  ,HA8 5EP",-0.2681237,51.6007298,477,0.476550176,519,0.5 km,408,7 mins,712,0.7 km,143,2 mins
204692,Ladbrokes L1939,"25 The Market Square  ,Edmonton Green  ,  ,LONDON  ,N9 0TZ",-0.0581652,51.6242489,C3117,"375 Fore Street  ,Edmonton  ,  ,LONDON  ,N9 0NR",-0.061657,51.6224476,313,0.31340596,549,0.5 km,417,7 mins,548,0.5 km,120,2 mins
205804,Ladbrokes L1815,"37 Church Street  ,Edmonton  ,  ,LONDON  ,N9 9QD",-0.064998,51.6261359,C3117,"375 Fore Street  ,Edmonton  ,  ,LONDON  ,N9 0NR",-0.061657,51.6224476,471,0.470522506,642,0.6 km,471,8 mins,750,0.8 km,216,4 mins
209144,Ladbrokes L1967,"112/114 Burnt Oak Broadway  ,Burnt Oak  ,  ,EDGWARE  ,HA8 0BE",-0.2669873,51.6006349,C1730,"69 Burnt Oak Broadway  ,Edgware  ,  ,EDGWARE  ,HA8 5EP",-0.2681237,51.6007298,79,0.079194538,141,0.1 km,116,2 mins,296,0.3 km,75,1 min
241516,Ladbrokes L0697,"1111 Warwick Road  ,Acocks Green  ,  ,BIRMINGHAM  ,B27 6RA",-1.821918,52.4463511,C1302,"1192 Warwick Road  ,Acock's Green  ,  ,BIRMINGHAM  ,B27 6BT",-1.8166862,52.4455137,367,0.366604925,409,0.4 km,324,5 mins,409,0.4 km,76,1 min
270445,Ladbrokes L3483,"27 Dudley Street  ,Wolverhampton  ,  ,WOLVERHAMPTON  ,WV1 3ER",-2.1263845,52.5841316,C1329,"34 Princess Street  ,Wolverhampton  ,  ,WOLVERHAMPTON  ,WV1 1HD",-2.1251824,52.5860904,232,0.232457419,305,0.3 km,222,4 mins,544,0.5 km,156,3 mins
271557,Ladbrokes L2150,"37 Queen Square  ,Wolverhampton  ,  ,WOLVERHAMPTON  ,WV1 1TL",-2.1288359,52.5858898,C1329,"34 Princess Street  ,Wolverhampton  ,  ,WOLVERHAMPTON  ,WV1 1HD",-2.1251824,52.5860904,248,0.247831924,279,0.3 km,207,3 mins,2035,2.0 km,482,8 mins
280460,Ladbrokes L3988,"25 Market Place  ,Cannock  ,  ,CANNOCK  ,WS11 1BS",-2.0307426,52.6885982,C3018,"47 St. John's Road  ,Cannock  ,  ,CANNOCK  ,WS11 0AL",-2.0326237,52.6844288,481,0.480642299,679,0.7 km,479,8 mins,1975,2.0 km,308,5 mins
282688,Ladbrokes L0326,"2/4 Ironmonger Row  ,Coventry  ,  ,COVENTRY  ,CV1 1FD",-1.509949,52.4093282,C3168,"48 Hertford Street  ,Coventry  ,  ,COVENTRY  ,CV1 1LF",-1.5122677,52.4061805,384,0.383724721,421,0.4 km,311,5 mins,3086,3.1 km,416,7 mins
282689,Ladbrokes L0326,"2/4 Ironmonger Row  ,Coventry  ,  ,COVENTRY  ,CV1 1FD",-1.509949,52.4093282,C2985,"78-79 Hartford Street  ,Broadgate  ,  ,COVENTRY  ,CV1 1LB",-1.5102596,52.4075114,203,0.203114882,222,0.2 km,175,3 mins,3157,3.2 km,430,7 mins
297159,Ladbrokes L2361,"174/175 High Street  ,Burton On Trent  ,  ,BURTON-ON-TRENT  ,DE14 1JE",-1.6305564,52.8019004,C2605,"186/187 Station Street  ,Burton-on-Trent  ,  ,BURTON-ON-TRENT  ,DE14 1BH",-1.6320295,52.8034827,202,0.201898109,270,0.3 km,190,3 mins,200,0.2 km,74,1 min
300499,Ladbrokes L0729,"5 High Street  ,Evesham  ,  ,EVESHAM  ,WR11 4DA",-1.9473344,52.0928387,C1394,"64 High Street  ,Evesham  ,  ,EVESHAM  ,WR11 4HG",-1.9462076,52.0941825,168,0.168086591,179,0.2 km,138,2 mins,569,0.6 km,130,2 mins
328315,Ladbrokes L2372,"88/92 St Peters Street  ,Derby  ,  ,DERBY  ,DE1 1SR",-1.475438,52.9194865,C1274,"34 Victoria Street  ,Derby  ,  ,DERBY  ,DE1 1ES",-1.4768786,52.9213972,233,0.233382311,249,0.2 km,165,3 mins,1113,1.1 km,340,6 mins
332763,Ladbrokes L0004,"13 East Street  ,Derby  ,  ,DERBY  ,DE1 2AU",-1.4746843,52.9213019,C1274,"34 Victoria Street  ,Derby  ,  ,DERBY  ,DE1 1ES",-1.4768786,52.9213972,147,0.147488608,178,0.2 km,130,2 mins,160,0.2 km,51,1 min
359495,Ladbrokes L2373,"8/10 Southgate Street  ,Gloucester  ,  ,GLOUCESTER  ,GL1 2DH",-2.2464064,51.8650679,C3256,"47 Northgate Street  ,Gloucester  ,  ,GLOUCESTER  ,GL1 2AJ",-2.2444316,51.8666188,219,0.219377096,220,0.2 km,152,3 mins,2149,2.1 km,382,6 mins
362841,Ladbrokes L2266,"37 Clumber Street  ,Nottingham  ,  ,NOTTINGHAM  ,NG1 3ED",-1.1478055,52.9546955,C3123,"33 Long Row  ,Nottingham  ,  ,NOTTINGHAM  ,NG1 2DR",-1.1499687,52.95389,170,0.170358089,278,0.3 km,195,3 mins,2386,2.4 km,536,9 mins
362845,Ladbrokes L2266,"37 Clumber Street  ,Nottingham  ,  ,NOTTINGHAM  ,NG1 3ED",-1.1478055,52.9546955,C2338,"Unit 2a  ,The Elite Building  ,  ,NOTTINGHAM  ,NG1 2BP",-1.1500089,52.9548267,148,0.148322697,379,0.4 km,286,5 mins,2376,2.4 km,533,9 mins
363952,Ladbrokes L2243,"36 Abington Street  ,Northampton  ,  ,NORTHAMPTON  ,NN1 2AP",-0.8934351,52.2382531,C3058,"36/40 Drapery  ,Northampton  ,  ,NORTHAMPTON  ,NN1 2HJ",-0.8970469,52.2380658,247,0.246821146,380,0.4 km,269,4 mins,1854,1.9 km,540,9 mins
366177,Ladbrokes L2647,"50 Milton Street  ,Nottingham  ,  ,NOTTINGHAM  ,NG1 3GL",-1.1481475,52.9562877,C3123,"33 Long Row  ,Nottingham  ,  ,NOTTINGHAM  ,NG1 2DR",-1.1499687,52.95389,293,0.293199666,338,0.3 km,241,4 mins,304,0.3 km,100,2 mins
366181,Ladbrokes L2647,"50 Milton Street  ,Nottingham  ,  ,NOTTINGHAM  ,NG1 3GL",-1.1481475,52.9562877,C2338,"Unit 2a  ,The Elite Building  ,  ,NOTTINGHAM  ,NG1 2BP",-1.1500089,52.9548267,205,0.204792072,337,0.3 km,267,4 mins,294,0.3 km,98,2 mins
367289,Ladbrokes L0025,"Unit 115  ,Victoria Shopping Centre  ,  ,NOTTINGHAM  ,NG1 3DB",-1.1468719,52.9558227,C3123,"33 Long Row  ,Nottingham  ,  ,NOTTINGHAM  ,NG1 2DR",-1.1499687,52.95389,299,0.298698526,484,0.5 km,346,6 mins,1286,1.3 km,286,5 mins
367293,Ladbrokes L0025,"Unit 115  ,Victoria Shopping Centre  ,  ,NOTTINGHAM  ,NG1 3DB",-1.1468719,52.9558227,C2338,"Unit 2a  ,The Elite Building  ,  ,NOTTINGHAM  ,NG1 2BP",-1.1500089,52.9548267,238,0.237539767,585,0.6 km,437,7 mins,1276,1.3 km,284,5 mins
386212,Ladbrokes L3511,"59 High Street  ,Kettering  ,  ,KETTERING  ,NN16 8SY",-0.7285875,52.3997697,C1227,"11 Lower Street  ,Kettering  ,  ,KETTERING  ,NN16 8DN",-0.7352733,52.4016109,498,0.497655503,615,0.6 km,427,7 mins,615,0.6 km,190,3 mins
388443,Ladbrokes L0195,"7/9 Corporation Street  ,Corby  ,  ,CORBY  ,NN17 1NG",-0.7001688,52.4876036,C2720,"34-36 George Street  ,Corby  ,  ,CORBY  ,NN17 1QD",-0.703308,52.4881834,222,0.222117335,299,0.3 km,222,4 mins,748,0.7 km,153,3 mins
418486,Ladbrokes L2649,"639/641 Midsummer Boulevard  ,Secklow Gate East  ,  ,MILTON KEYNES  ,MK9 3BQ",-0.7563066,52.0425233,C1846,"16-18 Secklow Gate West  ,Milton Keynes  ,  ,MILTON KEYNES  ,MK9 3AT",-0.7579609,52.0452816,327,0.32691172,494,0.5 km,359,6 mins,494,0.5 km,173,3 mins
436288,Ladbrokes L2423,"36A High Street  ,Grantham  ,  ,GRANTHAM  ,NG31 6PH",-0.641435,52.9112351,C1248,"29 Westgate  ,Grantham  ,  ,GRANTHAM  ,NG31 6LX",-0.6443181,52.9104159,214,0.213716755,277,0.3 km,207,3 mins,376,0.4 km,106,2 mins
442974,Ladbrokes L2857,"118 Kirkgate  ,Leeds  ,  ,LEEDS  ,LS1 6BY",-1.5407232,53.7968356,C1070,"3 Harper Street  ,Leeds  ,  ,LEEDS  ,LS2 7EA",-1.5380325,53.7963611,184,0.184427504,184,0.2 km,124,2 mins,177,0.2 km,60,1 min
466349,Ladbrokes L2326,"68/70 New Street  ,Huddersfield  ,  ,HUDDERSFIELD  ,HD1 2TR",-1.7836657,53.6441119,C1268,"4-6 Kirkgate  ,Huddersfield  ,  ,HUDDERSFIELD  ,HD1 1QH",-1.7814165,53.6467331,327,0.327002984,432,0.4 km,300,5 mins,1661,1.7 km,392,7 mins
467461,Ladbrokes L2836,"2 Upperhead Row Bus Station  ,Huddersfield  ,  ,HUDDERSFIELD  ,HD1 2JN",-1.7866595,53.6460747,C1268,"4-6 Kirkgate  ,Huddersfield  ,  ,HUDDERSFIELD  ,HD1 1QH",-1.7814165,53.6467331,353,0.353250269,424,0.4 km,284,5 mins,1311,1.3 km,443,7 mins
481933,Ladbrokes L2608,"49 Market Place  ,Doncaster  ,  ,DONCASTER  ,DN1 1NJ",-1.1334682,53.5242867,C2670,"35 St. Sepulchre Gate  ,Doncaster  ,  ,DONCASTER  ,DN1 1TD",-1.1362989,53.522765,252,0.252280271,309,0.3 km,223,4 mins,1701,1.7 km,454,8 mins
483045,Ladbrokes L3712,"39/47 Printing Office Street  ,Doncaster  ,  ,DONCASTER  ,DN1 1TP",-1.1342201,53.5221,C2670,"35 St. Sepulchre Gate  ,Doncaster  ,  ,DONCASTER  ,DN1 1TD",-1.1362989,53.522765,156,0.156053213,193,0.2 km,136,2 mins,147,0.1 km,65,1 min
484160,Ladbrokes L3898,"1 Bridgegate  ,Rotherham  ,  ,ROTHERHAM  ,S60 1PH",-1.3571707,53.432383,C3225,"3 Effingham Street  ,Rotherham  ,  ,ROTHERHAM  ,S65 1AJ",-1.3558122,53.431757,114,0.113774961,183,0.2 km,142,2 mins,72,72 m,31,1 min
499736,Ladbrokes L2590,"6/8 Matilda Street  ,Sheffield  ,  ,SHEFFIELD  ,S1 4QD",-1.4721122,53.3768287,C3199,"2 St. Paul's Parade  ,Sheffield  ,  ,SHEFFIELD  ,S1 2JL",-1.4693112,53.3790929,313,0.312900614,457,0.5 km,352,6 mins,463,0.5 km,164,3 mins
516425,Ladbrokes L2332,"15 Broadway  ,Accrington  ,  ,ACCRINGTON  ,BB5 1PL",-2.3655116,53.7534884,C1094,"33/35 Union Street  ,Accrington  ,  ,ACCRINGTON  ,BB5 1PL",-2.3666331,53.7541278,102,0.102427845,102,0.1 km,72,1 min,872,0.9 km,214,4 mins
567610,Ladbrokes L0190,"13-15 Market Place  ,Wigan  ,  ,WIGAN  ,WN1 1PE",-2.6312758,53.5461395,C3277,"42-44 Wallgate  ,Wigan  ,  ,WIGAN  ,WN1 1JU",-2.632726,53.5450213,157,0.156973081,205,0.2 km,138,2 mins,1473,1.5 km,321,5 mins
573173,Ladbrokes L2070,"64/66 Paragon Street  ,Hull  ,  ,HULL  ,HU1 3PW",-0.3425113,53.7441299,C3200,"Unit 6  ,74 Prospect Street  ,  ,HULL  ,HU2 8PW",-0.3436028,53.7469345,320,0.320010663,462,0.5 km,339,6 mins,969,1.0 km,286,5 mins
613242,Ladbrokes L3889,"38 King Street  ,Bridlington  ,  ,BRIDLINGTON  ,YO15 2DQ",-0.1901983,54.0818679,C3055,"Unit 1  ,5 Prospect Street  ,  ,BRIDLINGTON  ,YO15 2AE",-0.1927252,54.0835203,247,0.24683569,291,0.3 km,229,4 mins,525,0.5 km,106,2 mins
622150,Ladbrokes L3953,"11 Queen Street  ,Glasgow  ,  ,GLASGOW  ,G1 3ED",-4.2526387,55.8584137,C1006,"159 Queen Street  ,Glasgow  ,  ,GLASGOW  ,G1 3BJ",-4.2518401,55.8607421,264,0.263659534,264,0.3 km,196,3 mins,264,0.3 km,97,2 mins
623262,Ladbrokes L3939,"10 Dundas Lane  ,Glasgow  ,  ,GLASGOW  ,G1 2AJ",-4.2528286,55.8624623,C1006,"159 Queen Street  ,Glasgow  ,  ,GLASGOW  ,G1 3BJ",-4.2518401,55.8607421,201,0.200977982,276,0.3 km,191,3 mins,1112,1.1 km,430,7 mins
623263,Ladbrokes L3939,"10 Dundas Lane  ,Glasgow  ,  ,GLASGOW  ,G1 2AJ",-4.2528286,55.8624623,C1005,"Units 10 & 11  ,127-129 West Nile Street  ,  ,GLASGOW  ,G1 2RX",-4.254438386,55.86427039,225,0.224747955,321,0.3 km,258,4 mins,1108,1.1 km,415,7 mins
624374,Ladbrokes L3230,"8 Renfield Street  ,Glasgow  ,  ,GLASGOW  ,G2 5AL",-4.2567485,55.8609478,C1006,"159 Queen Street  ,Glasgow  ,  ,GLASGOW  ,G1 3BJ",-4.2518401,55.8607421,307,0.307152723,389,0.4 km,282,5 mins,2650,2.6 km,835,14 mins
624375,Ladbrokes L3230,"8 Renfield Street  ,Glasgow  ,  ,GLASGOW  ,G2 5AL",-4.2567485,55.8609478,C1005,"Units 10 & 11  ,127-129 West Nile Street  ,  ,GLASGOW  ,G1 2RX",-4.254438386,55.86427039,397,0.396582462,475,0.5 km,394,7 mins,465,0.5 km,224,4 mins
625486,Ladbrokes L3669,"228 Argyle Street  ,Glasgow  ,  ,GLASGOW  ,G2 8HA",-4.2588491,55.8586033,C1006,"159 Queen Street  ,Glasgow  ,  ,GLASGOW  ,G1 3BJ",-4.2518401,55.8607421,498,0.497872121,713,0.7 km,524,9 mins,2427,2.4 km,683,11 mins
626598,Ladbrokes L3173,"86 Gordon Street  ,Glasgow  ,  ,GLASGOW  ,G1 3RP",-4.2582087,55.860774,C1006,"159 Queen Street  ,Glasgow  ,  ,GLASGOW  ,G1 3BJ",-4.2518401,55.8607421,397,0.397437782,474,0.5 km,343,6 mins,2579,2.6 km,789,13 mins
626599,Ladbrokes L3173,"86 Gordon Street  ,Glasgow  ,  ,GLASGOW  ,G1 3RP",-4.2582087,55.860774,C1005,"Units 10 & 11  ,127-129 West Nile Street  ,  ,GLASGOW  ,G1 2RX",-4.254438386,55.86427039,454,0.454426116,600,0.6 km,485,8 mins,626,0.6 km,256,4 mins
627710,Ladbrokes L3938,"130 West Nile Street  ,Glasgow  ,  ,GLASGOW  ,G1 2RQ",-4.2541781,55.8637247,C1006,"159 Queen Street  ,Glasgow  ,  ,GLASGOW  ,G1 3BJ",-4.2518401,55.8607421,362,0.36232158,531,0.5 km,367,6 mins,2058,2.1 km,663,11 mins
627711,Ladbrokes L3938,"130 West Nile Street  ,Glasgow  ,  ,GLASGOW  ,G1 2RQ",-4.2541781,55.8637247,C1005,"Units 10 & 11  ,127-129 West Nile Street  ,  ,GLASGOW  ,G1 2RX",-4.254438386,55.86427039,63,0.062814537,80,80 m,64,1 min,56,56 m,23,1 min
628822,Ladbrokes L3080,"105 Hope Street  ,Glasgow  ,  ,GLASGOW  ,G2 6LL",-4.2589643,55.860645,C1006,"159 Queen Street  ,Glasgow  ,  ,GLASGOW  ,G1 3BJ",-4.2518401,55.8607421,445,0.444705749,505,0.5 km,365,6 mins,2600,2.6 km,797,13 mins
628823,Ladbrokes L3080,"105 Hope Street  ,Glasgow  ,  ,GLASGOW  ,G2 6LL",-4.2589643,55.860645,C1005,"Units 10 & 11  ,127-129 West Nile Street  ,  ,GLASGOW  ,G1 2RX",-4.254438386,55.86427039,492,0.49221089,638,0.6 km,514,9 mins,647,0.6 km,264,4 mins
631047,Ladbrokes L3523,"24 Cambridge Street  ,Glasgow  ,  ,GLASGOW  ,G2 3DZ",-4.2597231,55.865544,C1005,"Units 10 & 11  ,127-129 West Nile Street  ,  ,GLASGOW  ,G1 2RX",-4.254438386,55.86427039,359,0.358873253,438,0.4 km,301,5 mins,733,0.7 km,277,5 mins
696667,Ladbrokes L3732,"15/21 Sunnyside Road  ,Coatbridge  ,  ,COATBRIDGE  ,ML5 3DG",-4.0294685,55.8643595,C2242,"180 Bank Street  ,Coatbridge  ,  ,COATBRIDGE  ,ML5 3JA",-4.0309095,55.8617391,305,0.304934363,349,0.3 km,258,4 mins,377,0.4 km,51,1 min
697779,Ladbrokes L3919,"10 Church Street  ,Coatbridge  ,  ,COATBRIDGE  ,ML5 3EB",-4.0264627,55.8629412,C2242,"180 Bank Street  ,Coatbridge  ,  ,COATBRIDGE  ,ML5 3JA",-4.0309095,55.8617391,308,0.308000558,448,0.4 km,340,6 mins,734,0.7 km,128,2 mins
698891,Ladbrokes L3292,"103 Main Street  ,Coatbridge  ,  ,COATBRIDGE  ,ML5 3EL",-4.023576,55.8622863,C2242,"180 Bank Street  ,Coatbridge  ,  ,COATBRIDGE  ,ML5 3JA",-4.0309095,55.8617391,462,0.46164753,727,0.7 km,553,9 mins,1189,1.2 km,190,3 mins
704452,Ladbrokes L3966,"198/200 Main Street  ,Bellshill  ,  ,BELLSHILL  ,ML4 1AE",-4.0242239,55.8187096,C2666,"249/251 Main Street  ,Bellshill  ,  ,BELLSHILL  ,ML4 1AJ",-4.0221378,55.8191357,139,0.138665527,134,0.1 km,103,2 mins,1466,1.5 km,211,4 mins
706681,Ladbrokes L3568,"18/22 Broomknoll Street  ,Airdrie  ,  ,AIRDRIE  ,ML6 6BN",-3.9809074,55.86541,C2511,"14-16 Stirling Street  ,Airdrie  ,  ,AIRDRIE  ,ML6 0AH",-3.9814447,55.866164,90,0.090295363,126,0.1 km,107,2 mins,106,0.1 km,51,1 min
710021,Ladbrokes L3651,"5/7 Muir Street  ,Motherwell  ,  ,MOTHERWELL  ,ML1 1BH",-3.9932272,55.7905736,C1040,"62 Brandon Parade East  ,Motherwell  ,  ,MOTHERWELL  ,ML1 1LY",-3.991604,55.7908433,106,0.105814329,143,0.1 km,112,2 mins,955,1.0 km,147,2 mins
715584,Ladbrokes L3186,"9 Stewarton Street  ,Wishaw  ,  ,WISHAW  ,ML2 8AA",-3.9187244,55.7732703,C3267,"5 Main Street  ,Wishaw  ,  ,WISHAW  ,ML2 7AF",-3.9197956,55.7735406,73,0.073429705,68,68 m,58,1 min,68,68 m,24,1 min
731155,Ladbrokes L3528,"7 Lint Riggs  ,Falkirk  ,  ,FALKIRK  ,FK1 1DG",-3.7866082,56.0000536,C3064,"142-144 HighStreet  ,Falkirk  ,  ,FALKIRK  ,FK1 1NR",-3.783062,55.999158,242,0.24194853,271,0.3 km,199,3 mins,1537,1.5 km,358,6 mins
735607,Ladbrokes L3455,"43/45 West Blackhall Street  ,Greenock  ,  ,GREENOCK  ,PA15 1UT",-4.7616354,55.9502982,C1025,"42 West Blackhall Street  ,Greenock  ,  ,GREENOCK  ,PA15 1UY",-4.7610298,55.9501706,40,0.040285651,30,30 m,22,1 min,30,30 m,9,1 min
738945,Ladbrokes L3789,"21/25 King Street  ,Stirling  ,  ,STIRLING  ,FK8 1DN",-3.9375995,56.1178251,C3166,"73 Murray Place  ,Stirling  ,  ,STIRLING  ,FK8 1AU",-3.9372636,56.1193303,169,0.168661052,271,0.3 km,190,3 mins,2306,2.3 km,509,8 mins
792335,Ladbrokes L3676,"202/204 Leith Walk  ,Edinburgh  ,  ,EDINBURGH  ,EH6 5EQ",-3.1750104,55.9671689,C2636,"24-26 Great Junction Street  ,Edinburgh  ,  ,EDINBURGH  ,EH6 5LA",-3.172589,55.9711674,469,0.469452995,525,0.5 km,389,6 mins,1573,1.6 km,348,6 mins
821256,Ladbrokes L3506,"21/25 Union Street  ,Dundee  ,  ,DUNDEE  ,DD1 4BN",-2.9710887,56.4589119,C3053,"32 Reform Street  ,Dundee  ,  ,DUNDEE  ,DD1 1RH",-2.9712898,56.4613572,272,0.272185883,349,0.3 km,264,4 mins,1437,1.4 km,387,6 mins
822368,Ladbrokes L3590,"10 Panmure Street  ,Dundee  ,  ,DUNDEE  ,DD1 2BW",-2.9693663,56.4634146,C3053,"32 Reform Street  ,Dundee  ,  ,DUNDEE  ,DD1 1RH",-2.9712898,56.4613572,257,0.257488856,352,0.4 km,261,4 mins,1487,1.5 km,284,5 mins
842454,Ladbrokes L0117,"2A Union Gate  ,Union Street  ,  ,BRISTOL  ,BS1 2DL",-2.5920804,51.4576409,C3161,"20 Nelson Street  ,Bristol  ,  ,BRISTOL  ,BS1 2LE",-2.5929304,51.4565553,134,0.134313394,206,0.2 km,151,3 mins,1266,1.3 km,347,6 mins
853588,Ladbrokes L0700,"27 Upper Borough Walls  ,Bath  ,  ,BATH  ,BA1 1RH",-2.3604309,51.382622,C3029,"Unit C  ,Westpoint  ,  ,BATH  ,BA1 1UN",-2.3635426,51.3807954,296,0.296460124,410,0.4 km,277,5 mins,1152,1.2 km,317,5 mins
862492,Ladbrokes L0274,"2/3 Kingsway Centre  ,Frome  ,  ,FROME  ,BA11 1BT",-2.3201212,51.2305277,C2830,"13a Keyford  ,Frome  ,  ,FROME  ,BA11 1JN",-2.3216908,51.2263231,480,0.480135849,610,0.6 km,586,10 mins,635,0.6 km,120,2 mins
875841,Ladbrokes L1154,"20 St Mary Street  ,Cardiff  ,  ,CARDIFF  ,CF10 1AA",-3.1785875,51.4793589,C3122,"Part Ground floor  ,4 Churchill Way also known as 4a  ,  ,CARDIFF  ,CF10 2DW",-3.1733622,51.4820755,471,0.471364129,704,0.7 km,516,9 mins,3512,3.5 km,854,14 mins
875842,Ladbrokes L1154,"20 St Mary Street  ,Cardiff  ,  ,CARDIFF  ,CF10 1AA",-3.1785875,51.4793589,C1484,"8 St. John Street  ,Cardiff  ,  ,CARDIFF  ,CF10 1GJ",-3.1782338,51.4811383,199,0.19937086,265,0.3 km,196,3 mins,801,0.8 km,216,4 mins
881404,Ladbrokes L2776,"227 Cowbridge Road East  ,Cardiff  ,  ,CARDIFF  ,CF11 9AL",-3.1992748,51.4812656,C3249,"243 Cowbridge Road East  ,Cardiff  ,  ,CARDIFF  ,CF11 9AN",-3.2002478,51.4813306,68,0.067765787,60,60 m,44,1 min,60,60 m,21,1 min
934796,Ladbrokes L1010,"11 Fisherton Street  ,Salisbury  ,  ,SALISBURY  ,SP2 7SU",-1.7997671,51.069215,C3011,"Part of 5 & No.7  ,Winchester Street  ,  ,SALISBURY  ,SP1 1HB",-1.793743313,51.06981765,426,0.426197768,539,0.5 km,409,7 mins,539,0.5 km,149,2 mins
948151,Ladbrokes L2406,"60 Northbrook Street  ,Newbury  ,  ,NEWBURY  ,RG14 1AH",-1.3250298,51.4044046,C1556,"5/7 Market Place  ,Newbury  ,  ,NEWBURY  ,RG14 5AA",-1.3234071,51.4002756,473,0.472722027,582,0.6 km,432,7 mins,2879,2.9 km,428,7 mins
962621,Ladbrokes L0681,"20 Union Street  ,Swansea  ,  ,SWANSEA  ,SA1 3EH",-3.9466662,51.6201282,C1442,"17 Union Street  ,Swansea  ,  ,SWANSEA  ,SA1 3EH",-3.9466182,51.619965,18,0.018447125,107,0.1 km,78,1 min,17,17 m,4,1 min
962622,Ladbrokes L0681,"20 Union Street  ,Swansea  ,  ,SWANSEA  ,SA1 3EH",-3.9466662,51.6201282,C1441,"206 Oxford Street  ,Swansea  ,  ,SWANSEA  ,SA1 3HT",-3.9502243,51.6185669,301,0.300804048,387,0.4 km,295,5 mins,1044,1.0 km,233,4 mins
969296,Ladbrokes L0113,"685 Christchurch Road  ,Boscombe  ,  ,BOURNEMOUTH  ,BH7 6AA",-1.8355414,50.7274553,C1502,"568/570 Christchurch Road  ,Boscombe  ,  ,BOURNEMOUTH  ,BH1 4BH",-1.8401252,50.7266761,334,0.334076436,354,0.4 km,264,4 mins,684,0.7 km,162,3 mins
990471,Ladbrokes L0186,"20 Queen Victoria Street  ,Reading  ,  ,READING  ,RG1 1TG",-0.9720165,51.4561998,C2074,"20 Oxford Road  ,Reading  ,  ,READING  ,RG1 7LA",-0.9781684,51.4553035,438,0.437747781,482,0.5 km,346,6 mins,561,0.6 km,136,2 mins
990473,Ladbrokes L0186,"20 Queen Victoria Street  ,Reading  ,  ,READING  ,RG1 1TG",-0.9720165,51.4561998,C3212,"3-5 Station Road  ,Reading  ,  ,READING  ,RG1 1LG",-0.9723943,51.4571091,104,0.104443153,102,0.1 km,73,1 min,126,0.1 km,52,1 min
990474,Ladbrokes L0186,"20 Queen Victoria Street  ,Reading  ,  ,READING  ,RG1 1TG",-0.9720165,51.4561998,C2083,"11 Friar Street  ,Reading  ,  ,READING  ,RG1 1DB",-0.9711251,51.4568324,94,0.093608498,148,0.1 km,103,2 mins,2315,2.3 km,378,6 mins
1009252,Ladbrokes L2604,"668/672 Prescott Road  ,Liverpool  ,  ,LIVERPOOL  ,L13 5XG",-2.9085618,53.4142201,C3290,"618 Prescot Road  ,Old Swan  ,  ,LIVERPOOL  ,L13 5XE",-2.9120981,53.4133669,253,0.252844643,285,0.3 km,232,4 mins,511,0.5 km,145,2 mins
1036918,Ladbrokes L2869,"45-47 London Street  ,Southport  ,  ,SOUTHPORT  ,PR9 0TH",-3.0015312,53.6471501,C3210,"2 Chapel Street  ,Southport  ,  ,SOUTHPORT  ,PR8 1AF",-3.0055617,53.6461512,288,0.287944936,385,0.4 km,275,5 mins,1163,1.2 km,290,5 mins
1075017,Ladbrokes L2491,"7 Thurlow Street  ,Bedford  ,  ,BEDFORD  ,MK40 1LR",-0.470742,52.1373169,C2738,"97 Tavistock Street  ,Bedford  ,  ,BEDFORD  ,MK40 2RR",-0.472031,52.1413812,460,0.460412052,587,0.6 km,451,8 mins,664,0.7 km,161,3 mins
1075018,Ladbrokes L2491,"7 Thurlow Street  ,Bedford  ,  ,BEDFORD  ,MK40 1LR",-0.470742,52.1373169,C1845,"21 All Hallows  ,Bedford  ,  ,BEDFORD  ,MK40 1LN",-0.4698163,52.1381511,112,0.112229851,179,0.2 km,135,2 mins,531,0.5 km,143,2 mins
1075019,Ladbrokes L2491,"7 Thurlow Street  ,Bedford  ,  ,BEDFORD  ,MK40 1LR",-0.470742,52.1373169,C1844,"84 Midland Road  ,Bedford  ,  ,BEDFORD  ,MK40 1QH",-0.473871,52.1355296,292,0.291722803,360,0.4 km,279,5 mins,295,0.3 km,101,2 mins
1079475,Ladbrokes L2653,"55a West Street  ,Boston  ,  ,BOSTON  ,PE21 8QN",-0.0284659,52.9762791,C1211,"22 Market Place  ,Boston  ,  ,BOSTON  ,PE21 6EH",-0.0233378,52.9776374,375,0.375101347,438,0.4 km,336,6 mins,1928,1.9 km,455,8 mins
1080587,Ladbrokes L3125,"46 Market Place  ,Boston  ,  ,BOSTON  ,PE21 6NF",-0.0243946,52.9779786,C1211,"22 Market Place  ,Boston  ,  ,BOSTON  ,PE21 6EH",-0.0233378,52.9776374,80,0.080286152,103,0.1 km,81,1 min,152,0.2 km,97,2 mins
1080588,Ladbrokes L3125,"46 Market Place  ,Boston  ,  ,BOSTON  ,PE21 6NF",-0.0243946,52.9779786,C1212,"17a Wide Bargate  ,Boston  ,  ,BOSTON  ,PE21 6SR",-0.0213627,52.9797415,282,0.28219022,302,0.3 km,231,4 mins,1559,1.6 km,370,6 mins
1080589,Ladbrokes L3125,"46 Market Place  ,Boston  ,  ,BOSTON  ,PE21 6NF",-0.0243946,52.9779786,C3222,"6 Artillery Row  ,Boston  ,  ,BOSTON  ,PE21 6TY",-0.0186118,52.9777773,388,0.387823172,513,0.5 km,393,7 mins,1982,2.0 km,431,7 mins
1083929,Ladbrokes L0939,"Unit 1  ,14/17 Church Terrace  ,  ,WISBECH  ,PE13 1BL",0.162919,52.6636698,C1235,"47-47a Market Place  ,Wisbech  ,  ,WISBECH  ,PE13 1DP",0.1618971,52.6650702,170,0.170285699,187,0.2 km,140,2 mins,187,0.2 km,93,2 mins
1095069,Ladbrokes L1033,"1-4 Derrys Cross  ,Plymouth  ,  ,PLYMOUTH  ,PL1 2SU",-4.1460557,50.3689979,C1424,"97 Cornwall Street  ,Plymouth  ,  ,PLYMOUTH  ,PL1 1NX",-4.1454194,50.3721642,355,0.354957365,547,0.5 km,401,7 mins,943,0.9 km,292,5 mins
1179348,Ladbrokes L3261,"31/33 Nelson Street  ,Newcastle Upon Tyne  ,  ,NEWCASTLE-UPON-TYNE  ,NE1 5AN",-1.6145468,54.97325,C3300,"Unit 4  ,Haymarket  ,  ,NEWCASTLE-UPON-TYNE  ,NE1 7PF",-1.6140073,54.9773671,459,0.459094124,658,0.7 km,485,8 mins,964,1.0 km,322,5 mins
1226078,Ladbrokes L3801,"2 High Street  ,Spennymore  ,  ,SPENNYMOOR  ,DL16 6DB",-1.6018055,54.6988013,C2933,"39 Cheapside  ,Spennymoor  ,  ,SPENNYMOOR  ,DL16 6QF",-1.5989023,54.7004101,258,0.258459936,301,0.3 km,210,4 mins,1098,1.1 km,183,3 mins
1230736,Ladbrokes L0945,"3 Princes Street  ,Ipswich  ,  ,IPSWICH  ,IP1 1PN",1.1526128,52.0570384,C1209,"36 Lloyds Avenue  ,Ipswich  ,  ,IPSWICH  ,IP1 3HD",1.1534302,52.0589305,218,0.217688011,226,0.2 km,184,3 mins,1323,1.3 km,294,5 mins
1230737,Ladbrokes L0945,"3 Princes Street  ,Ipswich  ,  ,IPSWICH  ,IP1 1PN",1.1526128,52.0570384,C1203,"5/5a Upper Brook Street  ,Ipswich  ,  ,IPSWICH  ,IP4 1EG",1.1565269,52.0574176,271,0.270912269,553,0.6 km,411,7 mins,1360,1.4 km,344,6 mins
1254105,Ladbrokes L2425,"38 Newland Street  ,Witham  ,  ,WITHAM  ,CM8 2DY",0.6402555,51.8003848,C1911,"43-45 Newland Street  ,Witham  ,  ,WITHAM  ,CM8 2BD",0.6401447,51.799643,83,0.082835647,93,93 m,73,1 min,102,0.1 km,26,1 min
1255218,Ladbrokes L2957,"8/10 Bank Street  ,Braintree  ,  ,BRAINTREE  ,CM7 1UL",0.5513954,51.8795003,C1910,"15 Great Square  ,Braintree  ,  ,BRAINTREE  ,CM7 1TX",0.5517948,51.8787967,83,0.082901436,111,0.1 km,80,1 min,132,0.1 km,52,1 min
1269693,Ladbrokes L2162,"12/12a White Lion Street  ,Norwich Norfolk  ,  ,NORWICH  ,NR2 1QA",1.294028,52.627652,C3097,"19 St. Stephen's Street  ,Norwich  ,  ,NORWICH  ,NR1 3QN",1.2928569,52.6253945,263,0.263174074,324,0.3 km,245,4 mins,246,0.2 km,63,1 min
1272544,Ladbrokes L1773,"Unit 1 & 2 Gibralter House  ,High Street  ,  ,WICKFORD  ,SS12 9AX",-122.2552023,37.8677801,C2409,"Unit 1 & 2  ,208 Huddersfield Road  ,  ,BRADFORD  ,BD12 0AD",-122.2552023,37.8677801,0,0,0,1 m,0,1 min,0,1 m,0,1 min
1272912,Ladbrokes L1773,"Unit 1 & 2 Gibralter House  ,High Street  ,  ,WICKFORD  ,SS12 9AX",-122.2552023,37.8677801,C1664,"Unit 3 & 4  ,St. John's Centre  ,  ,SOUTHAMPTON  ,SO30 4QU",-122.2603811,37.8672629,458,0.458223381,505,0.5 km,349,6 mins,1110,1.1 km,225,4 mins
1287514,Ladbrokes L2756,"16 Theatre Plain  ,Great Yarmouth  ,  ,GREAT YARMOUTH  ,NR30 2BE",1.7279638,52.6072914,C1189,"112 Regent Road  ,Great Yarmouth  ,  ,GREAT YARMOUTH  ,NR30 2AE",1.7296361,52.6069956,118,0.117616717,149,0.1 km,105,2 mins,1482,1.5 km,408,7 mins
1298997,Ladbrokes L0758,"78b South Street  ,Romford  ,  ,ROMFORD  ,RM1 1RX",0.182297,51.5761877,C3067,"80 South Street  ,Romford  ,  ,ROMFORD  ,RM1 1RX",0.1822128,51.5759805,24,0.02376301,17,17 m,12,1 min,23,23 m,8,1 min
1300109,Ladbrokes L0884,"149 South Street  ,ROMFORD  ,  ,ROMFORD  ,RM1 1PL",0.1839104,51.5745368,C3067,"80 South Street  ,Romford  ,  ,ROMFORD  ,RM1 1RX",0.1822128,51.5759805,199,0.198829995,197,0.2 km,143,2 mins,246,0.2 km,157,3 mins
1310902,Ladbrokes L2978,"4/5A Windmill Street  ,Gravesend  ,  ,GRAVESEND  ,DA12 1AD",0.3694396,51.4415412,C1617,"27/28 King Street  ,Gravesend  ,  ,GRAVESEND  ,DA12 2DU",0.3698399,51.4422919,88,0.087964077,143,0.1 km,102,2 mins,2118,2.1 km,386,6 mins
1338943,Ladbrokes L1730,"31/33 Cranbrook Road  ,Ilford  ,  ,ILFORD  ,IG1 4DU",0.0699687,51.5595764,C2817,"109 Cranbrook Road  ,Ilford  ,  ,ILFORD  ,IG1 4PU",0.0689085,51.5614481,221,0.220651257,221,0.2 km,159,3 mins,221,0.2 km,51,1 min
1338949,Ladbrokes L1730,"31/33 Cranbrook Road  ,Ilford  ,  ,ILFORD  ,IG1 4DU",0.0699687,51.5595764,C1807,"Unit 2  ,186/190 High Road  ,  ,ILFORD  ,IG1 1LR",0.0761351,51.5593951,427,0.426760763,582,0.6 km,426,7 mins,628,0.6 km,148,2 mins
1342277,Ladbrokes L0223,"31 Station Parade  ,Barking  ,  ,BARKING  ,IG11 8EB",0.0806104,51.5389309,C1804,"43/45 Ripple Road  ,Barking  ,  ,BARKING  ,IG11 7PG",0.0817229,51.5363969,292,0.292085273,344,0.3 km,246,4 mins,471,0.5 km,169,3 mins
1342278,Ladbrokes L0223,"31 Station Parade  ,Barking  ,  ,BARKING  ,IG11 8EB",0.0806104,51.5389309,C2688,"24 Station Parade  ,Barking  ,  ,BARKING  ,IG11 8DR",0.0808421,51.5391302,27,0.027347903,26,26 m,21,1 min,26,26 m,10,1 min
1342280,Ladbrokes L0223,"31 Station Parade  ,Barking  ,  ,BARKING  ,IG11 8EB",0.0806104,51.5389309,C1803,"56-58 Station Parade  ,Barking  ,  ,BARKING  ,IG11 8EA",0.0814348,51.539161,62,0.06249422,83,83 m,64,1 min,1656,1.7 km,397,7 mins
1345613,Ladbrokes L2977,"29A East Street  ,Barking  ,  ,BARKING  ,IG11 8ER",0.0776629,51.5367814,C1804,"43/45 Ripple Road  ,Barking  ,  ,BARKING  ,IG11 7PG",0.0817229,51.5363969,284,0.284045945,369,0.4 km,267,4 mins,1276,1.3 km,389,6 mins
1345614,Ladbrokes L2977,"29A East Street  ,Barking  ,  ,BARKING  ,IG11 8ER",0.0776629,51.5367814,C2688,"24 Station Parade  ,Barking  ,  ,BARKING  ,IG11 8DR",0.0808421,51.5391302,341,0.341409993,348,0.3 km,258,4 mins,831,0.8 km,231,4 mins
1345616,Ladbrokes L2977,"29A East Street  ,Barking  ,  ,BARKING  ,IG11 8ER",0.0776629,51.5367814,C1803,"56-58 Station Parade  ,Barking  ,  ,BARKING  ,IG11 8EA",0.0814348,51.539161,372,0.371576462,405,0.4 km,301,5 mins,1596,1.6 km,353,6 mins
1404338,Ladbrokes L1797,"119 Victoria Road  ,Aldershot  ,  ,ALDERSHOT  ,GU11 1JW",-0.7638146,51.2483768,C1557,"46 Station Road  ,Aldershot  ,  ,ALDERSHOT  ,GU11 1HT",-0.7613937,51.2481507,170,0.170365344,178,0.2 km,121,2 mins,831,0.8 km,239,4 mins
1432179,Ladbrokes L0652,"6 George Street  ,Hove  ,  ,HOVE  ,BN3 3YA",-0.1736738,50.8286082,C2957,"70 Blatchington Road  ,Hove  ,  ,HOVE  ,BN3 3YH",-0.1741381,50.8311064,280,0.279695014,369,0.4 km,276,5 mins,874,0.9 km,206,3 mins
1451325,Ladbrokes L1548,"7 Cavendish Terrace  ,High Street  ,  ,FELTHAM  ,TW13 4HE",-0.4127142,51.4423981,C3071,"154 The Centre  ,High Street  ,  ,FELTHAM  ,TW13 4BS",-0.410518,51.4456973,397,0.397177492,412,0.4 km,323,5 mins,410,0.4 km,138,2 mins
1467954,Ladbrokes L0373,"143 Clarence St  ,Kingston  ,  ,KINGSTON UPON THAMES  ,KT1 1QT",-0.3010244,51.4111145,C2700,"11/13 Castle Street  ,Kingston-upon-Thames  ,  ,KINGSTON UPON THAMES  ,KT1 1ST",-0.3020907,51.4114591,83,0.083290887,152,0.2 km,112,2 mins,745,0.7 km,189,3 mins
1471299,Ladbrokes L0602,"7/9 Staines Road  ,Hounslow  ,  ,HOUNSLOW  ,TW3 3HH",-0.3664628,51.4680817,C3335,"208 High Street  ,Hounslow  ,  ,HOUNSLOW  ,TW3 1HE",-0.3631737,51.468828,242,0.242473537,255,0.3 km,184,3 mins,463,0.5 km,161,3 mins
1476859,Ladbrokes L0261,"113a/113b High Street  ,Hounslow  ,  ,HOUNSLOW  ,TW3 1QT",-0.3579721,51.4694558,C3335,"208 High Street  ,Hounslow  ,  ,HOUNSLOW  ,TW3 1HE",-0.3631737,51.468828,367,0.367001789,413,0.4 km,310,5 mins,2620,2.6 km,498,8 mins
1513137,Ladbrokes L3102,"122 Freeman Street  ,Grimbsy  ,  ,GRIMSBY  ,DN32 7AJ",-0.0740515,53.5710343,C2276,"137-139 Victor Street  ,Grimsby  ,  ,GRIMSBY  ,DN32 7PZ",-0.0671066,53.5707424,460,0.459724034,532,0.5 km,391,7 mins,760,0.8 km,147,2 mins
1531197,Ladbrokes L1255,"85 George Street  ,Luton  ,  ,LUTON  ,LU1 2AT",-0.4179007,51.8794603,C1873,"50 Bute Street  ,Luton  ,  ,LUTON  ,LU1 2EP",-0.4151626,51.8805064,221,0.221032195,263,0.3 km,188,3 mins,1274,1.3 km,365,6 mins
1531198,Ladbrokes L1255,"85 George Street  ,Luton  ,  ,LUTON  ,LU1 2AT",-0.4179007,51.8794603,C2789,"35 George Street  ,Luton  ,  ,LUTON  ,LU1 2AQ",-0.4155088,51.8784055,202,0.201778229,380,0.4 km,275,5 mins,1161,1.2 km,254,4 mins
1531199,Ladbrokes L1255,"85 George Street  ,Luton  ,  ,LUTON  ,LU1 2AT",-0.4179007,51.8794603,C1858,"12/14 Park Street  ,Luton  ,  ,LUTON  ,LU1 3EP",-0.4131713,51.877846,371,0.370965263,567,0.6 km,413,7 mins,1218,1.2 km,236,4 mins
1544724,Ladbrokes L1765,"12 Furzehill Parade  ,Borehamwood  ,  ,BOREHAMWOOD  ,WD6 1DX",-0.2759553,51.6555989,C1726,"161 Shenley Road  ,Borehamwood  ,  ,BOREHAMWOOD  ,WD6 1AH",-0.2736563,51.6570848,229,0.229020769,231,0.2 km,176,3 mins,378,0.4 km,79,1 min
1556933,Ladbrokes L2545,"17b High Street  ,Wealdstone  ,  ,HARROW  ,HA3 5BY",-0.3354123,51.5936171,C3339,"65 High Street  ,Wealdstone  ,  ,HARROW  ,HA3 5DQ",-0.3355207,51.595673,229,0.228728565,255,0.3 km,192,3 mins,255,0.3 km,95,2 mins
1561366,Ladbrokes L0761,"340 Station Road  ,Harrow  ,  ,HARROW  ,HA1 2DR",-0.3337837,51.5802768,C2998,"311 Station Road  ,Harrow  ,  ,HARROW  ,HA1 2TA",-0.333474,51.5815272,141,0.140675502,302,0.3 km,215,4 mins,1362,1.4 km,339,6 mins
1565215,Ladbrokes L3956,"50 Union Street  ,Aberdeen  ,  ,ABERDEEN  ,AB10 1BB",-2.0967237,57.147242,C2266,"181b Union Street  ,Aberdeen  ,  ,ABERDEEN  ,AB11 6BB",-2.1030577,57.1452085,444,0.443979309,449,0.4 km,348,6 mins,849,0.8 km,280,5 mins
1566327,Ladbrokes L3512,"24 Guild Street  ,Aberdeen  ,  ,ABERDEEN  ,AB11 6NF",-2.0968942,57.1452064,C2266,"181b Union Street  ,Aberdeen  ,  ,ABERDEEN  ,AB11 6BB",-2.1030577,57.1452085,372,0.371811015,486,0.5 km,408,7 mins,1538,1.5 km,438,7 mins
1567439,Ladbrokes L3174,"209 Union Street  ,Aberdeen  ,  ,ABERDEEN  ,AB11 6BA",-2.1031304,57.1451969,C2266,"181b Union Street  ,Aberdeen  ,  ,ABERDEEN  ,AB11 6BB",-2.1030577,57.1452085,5,0.004571351,0,1 m,0,1 min,0,1 m,0,1 min
1569663,Ladbrokes L3507,"16/18 Rose Street  ,Aberdeen  ,  ,ABERDEEN  ,AB10 1UA",-2.1107647,57.143684,C2266,"181b Union Street  ,Aberdeen  ,  ,ABERDEEN  ,AB11 6BB",-2.1030577,57.1452085,495,0.494871059,552,0.6 km,393,7 mins,653,0.7 km,208,3 mins
1603376,Ladbrokes L0148,"62 High Street  ,Ashford  ,  ,ASHFORD  ,TN24 8TB",0.8724722,51.14957,C1609,"5/7 Castle Street  ,Ashford  ,  ,ASHFORD  ,TN23 1JQ",0.8704248,51.1499133,148,0.147822615,160,0.2 km,116,2 mins,354,0.4 km,101,2 mins
1604615,Ladbrokes L2781,"2/8 Worthington Street  ,Dover  ,  ,DOVER  ,CT17 9AD",1.3108841,51.1265972,C1590,"28 Pencester Road  ,Dover  ,  ,DOVER  ,CT16 1BW",1.3123578,51.1275444,147,0.14720667,161,0.2 km,115,2 mins,1114,1.1 km,296,5 mins
